Time (s),Roll Rate (deg/s),Pitch Rate (deg/s),Yaw Rate (deg/s),X acc (m/s2),Y acc (m/s2),Z acc (m/s2),Roll (deg),Pitch (deg),Yaw (deg),N pos (m),E pos (m),Elevation (m),GPS Speed (m/s),Airspeed (m/s),Aileron (deg),Elevator (deg),Thrust (normalized),Rudder (deg)
751.64,0.015403,0.060826,0.21898,0.99515,-0.061394,-9.7259,0.091876,1.6672,0,5.782,-4.2901,-0.038807,0.18622,-0.12641,0.057217,1.4019,0,0.041748
751.66,-0.0101,0.054704,0.20634,0.9864,-0.079192,-9.7254,0.10185,1.6522,0,5.782,-4.2918,-0.036908,0.17499,-0.04625,0.066394,1.3943,0,0.041748
751.68,-0.010774,0.058283,0.17182,0.97909,-0.075024,-9.7331,0.1146,1.6345,0,5.7821,-4.2934,-0.03508,0.16376,0.033914,0.075572,1.3867,0,0.041748
751.7,-0.017285,0.089532,0.21651,0.99252,-0.075162,-9.7126,0.13975,1.6043,0,5.7821,-4.2948,-0.033544,0.15253,0.082865,0.08475,1.3791,0,0.041748
751.72,-0.0042584,0.044475,0.22084,0.99631,-0.073337,-9.7162,0.16386,1.5732,0,5.7821,-4.2962,-0.032045,0.14129,0.018926,0.10967,1.3874,0,0.041748
751.74,0.05866,0.049438,0.23076,0.9944,-0.065819,-9.7205,0.18374,1.5385,0,5.782,-4.2974,-0.030689,0.13006,-0.045012,0.20124,1.4632,0,0.041748
751.76,0.094576,0.10643,0.21999,0.98202,-0.059582,-9.7192,0.20538,1.5037,0,5.7819,-4.2986,-0.029457,0.11883,-0.10895,0.29282,1.539,0,0.041748
751.78,0.049087,0.11643,0.24174,0.99467,-0.06229,-9.7318,0.23494,1.4692,0,5.7817,-4.2996,-0.02876,0.10759,-0.17289,0.38439,1.6148,0,0.041748
751.8,0.11652,0.067088,0.18671,1.0053,-0.062361,-9.7302,0.26383,1.4346,0,5.7816,-4.3006,-0.02807,0.096362,-0.22027,0.47597,1.6906,0,0.041748
751.82,0.16042,0.091199,0.19463,0.99132,-0.065376,-9.7139,0.28893,1.3995,0,5.7814,-4.3015,-0.027422,0.085129,-0.20391,0.53838,1.7422,3.98E-05,0.041748
751.84,0.10164,0.069767,0.22156,0.98599,-0.072999,-9.7055,0.31081,1.3692,0.00080795,5.7811,-4.3025,-0.026704,0.076639,-0.18755,0.44569,1.6655,0.00029118,0.041748
751.86,0.062078,0.069919,0.27663,0.99673,-0.074143,-9.7303,0.31583,1.3642,0.0058263,5.7804,-4.3039,-0.025671,0.079027,-0.1712,0.35301,1.5888,0.00054256,0.041748
751.88,0.0050748,0.064727,0.23765,0.99556,-0.075298,-9.7391,0.3183,1.3626,0.0091496,5.7798,-4.3053,-0.024693,0.081416,-0.15484,0.26032,1.5121,0.00079395,0.041748
751.9,0.01434,0.080433,0.2273,0.99654,-0.070655,-9.732,0.30819,1.3777,0.004097,5.7791,-4.3065,-0.023961,0.083805,-0.14163,0.16763,1.4354,0.0010453,0.041748
751.92,-0.045733,0.084354,0.19589,0.99007,-0.075521,-9.7368,0.29716,1.3938,0.00094724,5.7785,-4.3077,-0.023247,0.086194,-0.14031,0.092175,1.373,0.0012033,0.040189
751.94,-0.035946,0.10127,0.23321,0.9979,-0.073274,-9.7402,0.28213,1.4138,0.0059551,5.7778,-4.3088,-0.022601,0.088582,-0.13899,0.092175,1.373,0.00095213,0.0318
751.96,-0.035631,0.070975,0.20919,0.99204,-0.080663,-9.7287,0.26716,1.4328,0.01,5.7771,-4.3098,-0.022099,0.090971,-0.13767,0.092175,1.373,0.00070095,0.023411
751.98,-0.011618,0.10149,0.20724,1.0048,-0.071113,-9.7233,0.2524,1.4476,0.01,5.7764,-4.3107,-0.022146,0.09336,-0.13634,0.092175,1.373,0.00044977,0.015022
752,0.057645,0.073624,0.20633,0.99538,-0.059306,-9.7233,0.23758,1.4624,0.01,5.7758,-4.3115,-0.02219,0.095748,-0.13667,0.092175,1.373,0.00019859,0.0066325
752.02,0.082551,0.096341,0.23024,0.99776,-0.066729,-9.7217,0.2224,1.4776,0.01,5.7751,-4.3123,-0.022219,0.098137,-0.14405,0.090252,1.373,5.22E-05,0.0034841
752.04,0.13018,0.07111,0.19774,1.0008,-0.071054,-9.7195,0.21091,1.4909,0.0090918,5.7746,-4.3133,-0.021942,0.10372,-0.15143,0.081068,1.373,0.00030125,0.020122
752.06,0.098987,0.059411,0.21237,0.99976,-0.073161,-9.7326,0.21588,1.4959,0.0041153,5.7751,-4.3153,-0.020407,0.12063,-0.15881,0.071884,1.373,0.00055034,0.036761
752.08,0.10749,0.095185,0.22469,0.99726,-0.072701,-9.7375,0.22263,1.4982,0.00087516,5.7756,-4.3172,-0.018893,0.13754,-0.16619,0.0627,1.373,0.00079942,0.053399
752.1,0.090755,0.089007,0.15831,1.0018,-0.06644,-9.7384,0.2378,1.4881,0.0059324,5.776,-4.319,-0.017466,0.15445,-0.17852,0.053516,1.373,0.0010485,0.070037
752.12,0.043306,0.084257,0.193,0.99253,-0.060468,-9.7369,0.25195,1.478,0.01,5.7764,-4.3206,-0.016073,0.17136,-0.20991,0.046087,1.373,0.00125,0.081901
752.14,-0.003158,0.072237,0.18654,0.98498,-0.061113,-9.7291,0.26192,1.4681,0.01,5.7766,-4.3222,-0.01481,0.18827,-0.24131,0.046087,1.373,0.00125,0.073551
752.16,0.014882,0.077923,0.21291,1.0052,-0.061676,-9.7254,0.27278,1.4581,0.01,5.7769,-4.3236,-0.013521,0.20518,-0.27271,0.046087,1.373,0.00125,0.065202
752.18,0.013441,0.076182,0.21189,0.99838,-0.062539,-9.7386,0.28744,1.4484,0.01,5.777,-4.3249,-0.012133,0.22208,-0.30411,0.046087,1.373,0.00125,0.056853
752.2,-0.014769,0.040131,0.2232,0.98648,-0.061328,-9.7412,0.30073,1.4385,0.01,5.7772,-4.3262,-0.010759,0.23899,-0.31563,0.046087,1.373,0.00125,0.048504
752.22,0.027358,0.086689,0.22603,0.98851,-0.059392,-9.7249,0.30581,1.4284,0.01,5.7773,-4.3273,-0.0094682,0.2559,-0.24294,0.046087,1.373,0.0012024,0.041748
752.24,0.097918,0.060478,0.20068,1.0052,-0.062949,-9.7195,0.3135,1.4182,0.01,5.778,-4.3287,-0.0081211,0.27184,-0.17025,0.046087,1.373,0.00095308,0.041748
752.26,0.086599,0.088766,0.21354,1.0061,-0.055733,-9.712,0.33354,1.4082,0.01,5.7816,-4.3312,-0.006532,0.28416,-0.097565,0.046087,1.373,0.00070375,0.041748
752.28,0.088966,0.11208,0.17553,0.98929,-0.058574,-9.7211,0.35357,1.3991,0.01,5.7851,-4.3336,-0.0049627,0.29647,-0.024877,0.046087,1.373,0.00045442,0.041748
752.3,0.11439,0.077926,0.18772,0.9805,-0.062219,-9.7414,0.37361,1.3941,0.01,5.7882,-4.3357,-0.0034764,0.30878,0.024196,0.046087,1.373,0.00020509,0.041748
752.32,0.11629,0.046278,0.19449,0.99222,-0.069248,-9.7278,0.39276,1.3882,0.01,5.7913,-4.3378,-0.0020159,0.32109,-0.011097,0.047732,1.373,0,0.041748
752.34,0.11782,0.033817,0.19903,0.99251,-0.062477,-9.7128,0.40787,1.3781,0.01,5.7942,-4.3398,-0.00066406,0.33341,-0.046389,0.056999,1.373,0,0.041748
752.36,0.037237,0.087698,0.20882,0.98716,-0.050057,-9.7161,0.42385,1.369,0.010964,5.797,-4.3417,0.00064759,0.34572,-0.081681,0.066267,1.373,0,0.041748
752.38,0.0045738,0.04463,0.20905,0.99929,-0.059277,-9.7215,0.44336,1.3642,0.01584,5.7995,-4.3433,0.0018094,0.35803,-0.11697,0.075534,1.373,0,0.041748
752.4,-0.054138,0.031248,0.24852,0.99355,-0.070421,-9.7256,0.46224,1.3585,0.02,5.8019,-4.345,0.0029581,0.37034,-0.14589,0.084802,1.373,0,0.041748
752.42,-0.029533,0.056202,0.28042,0.98097,-0.061345,-9.7404,0.47751,1.3483,0.02,5.8043,-4.3465,0.0040363,0.38265,-0.14548,0.092175,1.373,0.00010179,0.041748
752.44,0.018599,0.089975,0.22572,0.99074,-0.055844,-9.7402,0.49263,1.3391,0.02,5.8063,-4.3476,0.0051337,0.39497,-0.14507,0.092175,1.373,0.00059977,0.041748
752.46,0.026673,0.050527,0.24244,0.98729,-0.060744,-9.7266,0.50703,1.3343,0.02,5.8068,-4.3471,0.0063127,0.39666,-0.14467,0.092175,1.373,0.0010978,0.041748
752.48,-0.0031027,0.067162,0.23761,0.9943,-0.068504,-9.7419,0.51581,1.3358,0.019477,5.807,-4.3463,0.0075184,0.36019,-0.14426,0.092175,1.373,0.0015957,0.041748
752.5,0.060964,0.10233,0.21018,0.99452,-0.071775,-9.7295,0.47392,1.3934,0.014239,5.8059,-4.3438,0.0089344,0.32372,-0.14088,0.092175,1.373,0.0020937,0.041748
752.52,0.051478,0.12389,0.15062,0.99331,-0.067399,-9.7251,0.43239,1.4495,0.01,5.8047,-4.3413,0.010307,0.28725,-0.12662,0.088785,1.3744,0.0023621,0.041748
752.54,0.11971,0.10437,0.20496,0.99456,-0.060372,-9.72,0.39244,1.4995,0.01,5.8037,-4.3391,0.011512,0.25077,-0.11236,0.07038,1.382,0.0016133,0.041748
752.56,0.10326,0.12105,0.21846,0.99448,-0.066007,-9.7388,0.35261,1.5502,0.01,5.8026,-4.3369,0.012714,0.2143,-0.098095,0.051974,1.3896,0.0008645,0.041748
752.58,0.095046,0.099155,0.21235,0.99757,-0.06811,-9.7336,0.3133,1.6042,0.01,5.8016,-4.3348,0.013906,0.17783,-0.083833,0.033569,1.3972,0.0001157,0.041748
752.6,0.037521,0.07254,0.19643,0.98901,-0.07284,-9.7244,0.27457,1.6585,0.0092237,5.8006,-4.3327,0.015079,0.14135,-0.07707,0.015163,1.4048,-0.0006331,0.041748
752.62,0.015643,0.10085,0.19762,0.9965,-0.081909,-9.7414,0.23901,1.7144,0.0041446,5.7996,-4.3306,0.016159,0.10488,-0.10042,0,1.4111,-0.001206,0.041748
752.64,-0.0052547,0.049812,0.19714,0.98987,-0.071679,-9.733,0.20908,1.7609,0,5.7989,-4.3286,0.017285,0.078858,-0.12377,0,1.4111,-0.00095613,0.041748
752.66,0.021856,0.096489,0.24575,0.98702,-0.074441,-9.7282,0.20407,1.7659,0,5.7992,-4.3268,0.018602,0.091565,-0.14712,0,1.4111,-0.00070627,0.041748
752.68,0.0059469,0.1019,0.1958,0.98879,-0.072213,-9.7149,0.20558,1.7616,0,5.7994,-4.325,0.019879,0.10427,-0.17047,0,1.4111,-0.00045641,0.041748
752.7,0.071596,0.10251,0.16933,1.0015,-0.060627,-9.7252,0.23543,1.7169,0,5.7996,-4.3232,0.020991,0.11698,-0.18985,0,1.4111,-0.00020655,0.041748
752.72,0.1006,0.077652,0.21294,0.99777,-0.064723,-9.7311,0.26623,1.6729,0,5.7997,-4.3214,0.022081,0.12969,-0.1947,0.0015991,1.4111,0,0.043197
752.74,0.12573,0.086952,0.21671,0.99944,-0.075499,-9.7269,0.3015,1.6326,0,5.7998,-4.3197,0.023079,0.1424,-0.19955,0.010824,1.4111,0,0.051553
752.76,0.12536,0.061268,0.18505,0.99688,-0.061786,-9.7281,0.33661,1.5915,0,5.7998,-4.3179,0.023997,0.1551,-0.20439,0.020049,1.4111,0,0.059909
752.78,0.15562,0.12348,0.20944,0.99099,-0.068919,-9.7202,0.37104,1.5472,0,5.7998,-4.3162,0.024594,0.16781,-0.20924,0.029273,1.4111,0,0.068265
752.8,0.11002,0.12908,0.19315,0.99991,-0.071584,-9.7284,0.40486,1.5035,0.00080921,5.7998,-4.3145,0.025182,0.18052,-0.2113,0.038498,1.4111,0,0.076622
752.82,0.10463,0.10705,0.2062,0.99191,-0.066551,-9.7377,0.43544,1.4627,0.0059066,5.7997,-4.3127,0.025727,0.19323,-0.20229,0.047719,1.4097,0,0.083496
752.84,0.054441,0.11334,0.20007,0.99731,-0.063631,-9.7255,0.46563,1.4215,0.01,5.7998,-4.3111,0.026131,0.20594,-0.19329,0.056924,1.4021,0,0.083496
752.86,-0.029808,0.079843,0.16232,0.98588,-0.062995,-9.7201,0.49425,1.3786,0.01,5.8007,-4.31,0.026018,0.2167,-0.18428,0.066129,1.3945,0,0.083496
752.88,-0.0044907,0.10984,0.16941,0.99704,-0.05098,-9.7129,0.52104,1.3384,0.01,5.8017,-4.3088,0.025837,0.22049,-0.17528,0.075334,1.3869,0,0.083496
752.9,0.010793,0.10539,0.17136,1.0054,-0.073555,-9.7241,0.53143,1.3229,0.01,5.8035,-4.308,0.025139,0.22428,-0.17138,0.084538,1.3793,0,0.083496
752.92,0.016436,0.048247,0.21464,1.0014,-0.063442,-9.7276,0.54088,1.3091,0.01,5.8054,-4.3071,0.024458,0.22808,-0.18578,0.092175,1.373,0,0.083496
752.94,0.029434,0.045416,0.21205,0.98749,-0.069259,-9.7287,0.54593,1.3041,0.01,5.807,-4.3062,0.023852,0.23187,-0.20019,0.092175,1.373,0,0.083496
752.96,0.056072,0.070467,0.24436,0.99074,-0.065967,-9.7267,0.55286,1.2971,0.010955,5.8085,-4.3054,0.023214,0.23566,-0.21459,0.092175,1.373,0,0.083496
752.98,0.058018,0.071925,0.23244,0.99674,-0.06508,-9.7315,0.56759,1.2824,0.015863,5.8099,-4.3045,0.022454,0.23946,-0.229,0.092175,1.373,0,0.083496
753,0.054177,0.052388,0.20036,0.99193,-0.06696,-9.7125,0.58159,1.2692,0.02,5.8113,-4.3036,0.021702,0.24325,-0.2402,0.092175,1.373,0,0.083496
753.02,0.082902,0.10202,0.20424,0.99761,-0.071165,-9.7368,0.59174,1.2641,0.02,5.8125,-4.3027,0.020997,0.24704,-0.23784,0.092175,1.373,3.88E-05,0.083496
753.04,0.093006,0.077108,0.21346,0.99987,-0.069178,-9.7334,0.59629,1.2619,0.02,5.8133,-4.3017,0.020437,0.24539,-0.23547,0.092175,1.373,0.00029082,0.083496
753.06,0.070744,0.078687,0.20473,1.0062,-0.074115,-9.734,0.57629,1.2719,0.02,5.8122,-4.3004,0.020485,0.22451,-0.23311,0.092175,1.373,0.00054282,0.083496
753.08,0.083792,0.068677,0.22983,1.0023,-0.061531,-9.7325,0.54883,1.2865,0.019069,5.811,-4.2992,0.020522,0.20363,-0.23075,0.092175,1.373,0.00079482,0.083496
753.1,0.073343,0.060835,0.1929,1.0023,-0.070055,-9.7369,0.48847,1.3217,0.014039,5.8099,-4.298,0.020514,0.18275,-0.22168,0.092175,1.373,0.0010468,0.083496
753.12,0.075502,0.076391,0.18541,0.99609,-0.0723,-9.7246,0.42721,1.3559,0.01,5.8089,-4.2967,0.020504,0.16187,-0.18884,0.090397,1.373,0.0012018,0.083496
753.14,0.027816,0.061009,0.17481,0.98145,-0.065427,-9.7398,0.36227,1.3859,0.01,5.8078,-4.2955,0.020483,0.14098,-0.156,0.081222,1.373,0.00095293,0.083496
753.16,0.01819,0.059972,0.18262,0.99247,-0.067032,-9.7398,0.29839,1.4158,0.0090324,5.8068,-4.2943,0.02037,0.1201,-0.12316,0.072046,1.373,0.00070406,0.083496
753.18,0.018157,0.024173,0.20173,0.99653,-0.060549,-9.7189,0.23888,1.4456,0.0040731,5.8058,-4.293,0.01991,0.099222,-0.090316,0.062871,1.373,0.0004552,0.083496
753.2,0.00017705,0.054957,0.2392,0.98655,-0.058681,-9.7238,0.1792,1.4763,0,5.8048,-4.2918,0.019458,0.078342,-0.068813,0.053695,1.373,0.00020633,0.083496
753.22,0.017414,0.08269,0.25302,0.9985,-0.050775,-9.7272,0.11878,1.5115,0,5.8039,-4.2905,0.019042,0.057461,-0.089161,0.046087,1.373,0,0.083496
753.24,0.034722,0.076333,0.22268,0.99947,-0.050799,-9.7246,0.06615,1.5419,-0.00096247,5.8029,-4.2894,0.018576,0.042708,-0.10951,0.046087,1.373,0,0.083496
753.26,0.053717,0.089024,0.22392,1.0064,-0.064379,-9.7303,0.046177,1.5519,-0.0059559,5.802,-4.289,0.017924,0.049341,-0.12986,0.046087,1.373,0,0.083496
753.28,0.074503,0.061129,0.19952,0.98701,-0.069214,-9.7285,0.034741,1.5562,-0.01,5.8011,-4.2886,0.017298,0.055973,-0.1502,0.046087,1.373,0,0.083496
753.3,0.07752,0.067268,0.18824,0.9803,-0.057429,-9.7266,0.059678,1.5363,-0.01,5.8002,-4.2881,0.016776,0.062605,-0.16253,0.046087,1.373,0,0.083496
753.32,0.11505,0.099659,0.1727,1.0085,-0.059243,-9.733,0.084648,1.5172,-0.01,5.7993,-4.2876,0.016261,0.069238,-0.14594,0.047693,1.373,0,0.082042
753.34,0.10609,0.10015,0.19694,1.0011,-0.06045,-9.7294,0.10976,1.5021,-0.01,5.7985,-4.2871,0.015776,0.07587,-0.12936,0.056872,1.373,0,0.073727
753.36,0.089722,0.078551,0.20422,1.0043,-0.058241,-9.7171,0.13384,1.4862,-0.0090405,5.7976,-4.2865,0.015328,0.082502,-0.11277,0.066052,1.373,0,0.065412
753.38,0.028425,0.13492,0.2378,0.99433,-0.060902,-9.7226,0.15359,1.4664,-0.0041034,5.7967,-4.2858,0.015022,0.089135,-0.096191,0.075231,1.373,0,0.057097
753.4,0.037931,0.10098,0.19237,0.99374,-0.066952,-9.7273,0.17336,1.4475,-0.00083978,5.7958,-4.2852,0.014718,0.095767,-0.089304,0.08441,1.373,0,0.048781
753.42,0.035327,0.094522,0.22411,0.98084,-0.068665,-9.725,0.19325,1.4326,-0.0058133,5.795,-4.2845,0.014427,0.1024,-0.11868,0.090743,1.3741,-3.88E-05,0.043045
753.44,0.044691,0.10571,0.18883,1.0025,-0.058545,-9.7268,0.2116,1.4176,-0.01,5.7942,-4.284,0.014166,0.10837,-0.14805,0.081456,1.3818,-0.00029071,0.051457
753.46,0.04206,0.061118,0.21396,1.0042,-0.063978,-9.7135,0.22172,1.4024,-0.01,5.794,-4.2848,0.014052,0.1117,-0.17742,0.07217,1.3895,-0.00054259,0.05987
753.48,0.034777,0.07475,0.25872,0.99734,-0.065326,-9.7333,0.23092,1.3891,-0.01,5.7938,-4.2856,0.0139,0.11502,-0.20679,0.062883,1.3972,-0.00079446,0.068282
753.5,0.032843,0.077231,0.24038,0.99408,-0.070283,-9.7448,0.23598,1.384,-0.01,5.7935,-4.2862,0.013592,0.11835,-0.22788,0.053596,1.4049,-0.0010463,0.076694
753.52,0.070399,0.087428,0.19678,0.99262,-0.077782,-9.733,0.24102,1.379,-0.011021,5.7933,-4.2868,0.013289,0.12168,-0.21902,0.046087,1.4096,-0.00125,0.081899
753.54,0.094724,0.075196,0.18528,0.9938,-0.074396,-9.73,0.246,1.374,-0.016005,5.793,-4.2873,0.013003,0.125,-0.21017,0.046087,1.402,-0.00125,0.073557
753.56,0.058432,0.081583,0.20809,0.99493,-0.071853,-9.7363,0.25099,1.369,-0.019013,5.7926,-4.2877,0.01275,0.12833,-0.20131,0.046087,1.3944,-0.00125,0.065214
753.58,0.067952,0.055508,0.21129,0.98695,-0.07681,-9.7568,0.25596,1.364,-0.014037,5.7923,-4.288,0.012619,0.13166,-0.19246,0.046087,1.3868,-0.00125,0.056872
753.6,0.060559,0.061974,0.17886,0.99479,-0.076205,-9.7298,0.26094,1.3581,-0.010943,5.792,-4.2883,0.012488,0.13498,-0.183,0.046087,1.3792,-0.00125,0.04853
753.62,0.038332,0.081799,0.18993,0.98469,-0.076935,-9.7146,0.26594,1.3481,-0.015936,5.7916,-4.2885,0.012356,0.13831,-0.17136,0.046087,1.373,-0.0011565,0.043309
753.64,0.075774,0.070878,0.21655,0.98701,-0.073727,-9.7219,0.2709,1.3391,-0.02,5.7911,-4.2888,0.012185,0.14164,-0.15971,0.046087,1.373,-0.00065681,0.051654
753.66,0.045096,0.047778,0.20038,0.99759,-0.079067,-9.7312,0.27573,1.3343,-0.02,5.7901,-4.2896,0.011853,0.1442,-0.14806,0.046087,1.373,-0.00015712,0.059998
753.68,0.026192,0.049339,0.16153,1.0051,-0.070792,-9.7231,0.27822,1.3306,-0.02,5.7889,-4.2904,0.011495,0.14408,-0.13641,0.046087,1.373,0.00034258,0.068343
753.7,0.019953,0.036424,0.17065,1.0084,-0.062297,-9.7163,0.26263,1.3358,-0.02,5.7872,-4.2918,0.010964,0.14396,-0.12766,0.046087,1.373,0.00084227,0.076688
753.72,0.044198,0.0823,0.1888,1.0083,-0.069694,-9.7175,0.24715,1.3419,-0.02,5.7856,-4.2931,0.010446,0.14385,-0.12914,0.046087,1.373,0.00125,0.083496
753.74,0.053287,0.13107,0.21488,0.99776,-0.074045,-9.7294,0.23213,1.3519,-0.02,5.784,-4.2942,0.0099796,0.14373,-0.13062,0.046087,1.373,0.00125,0.083496
753.76,0.059716,0.1377,0.1802,0.99532,-0.062941,-9.7047,0.21718,1.3609,-0.020939,5.7824,-4.2952,0.0095738,0.14362,-0.1321,0.046087,1.373,0.00125,0.083496
753.78,0.049331,0.11053,0.21373,0.9941,-0.060659,-9.7077,0.20254,1.3658,-0.025818,5.781,-4.2961,0.0094106,0.1435,-0.13358,0.046087,1.373,0.00125,0.083496
753.8,0.067577,0.11721,0.18069,0.9759,-0.071115,-9.7227,0.18781,1.37,-0.03,5.7795,-4.297,0.0092466,0.14339,-0.13564,0.046087,1.373,0.00125,0.083496
753.82,0.063661,0.14013,0.18971,0.98265,-0.077961,-9.7214,0.1725,1.37,-0.03,5.778,-4.2977,0.0090788,0.14327,-0.14016,0.046087,1.3744,0.0011584,0.081967
753.84,0.039378,0.045488,0.16274,0.99635,-0.068359,-9.7306,0.16,1.37,-0.03,5.7766,-4.2989,0.0087195,0.14219,-0.14469,0.046087,1.382,0.00065985,0.073641
753.86,0.057203,0.077115,0.19447,1.0059,-0.069483,-9.7308,0.16,1.37,-0.03,5.7752,-4.3015,0.0075457,0.13755,-0.14922,0.046087,1.3896,0.00016127,0.065315
753.88,0.031365,0.08115,0.18882,0.99297,-0.057981,-9.7164,0.16085,1.3683,-0.030854,5.7738,-4.3041,0.0063771,0.13292,-0.15374,0.046087,1.3972,-0.00033732,0.056989
753.9,0.011688,0.04201,0.2086,0.9877,-0.056999,-9.7212,0.16586,1.3583,-0.035859,5.7724,-4.3064,0.0052319,0.12828,-0.15981,0.046087,1.4048,-0.0008359,0.048663
753.92,-0.023704,0.05574,0.22278,1.0015,-0.070987,-9.7224,0.17175,1.3482,-0.039123,5.7711,-4.3087,0.0041028,0.12364,-0.17153,0.046087,1.4098,-0.0012074,0.043169
753.94,-0.0052493,0.07816,0.23999,1.0115,-0.075999,-9.7264,0.18192,1.3381,-0.034039,5.7697,-4.3108,0.0030449,0.11901,-0.18324,0.046087,1.4021,-0.00095634,0.051556
753.96,0.053923,0.14634,0.21439,1.007,-0.081382,-9.7043,0.19204,1.328,-0.03,5.7684,-4.3129,0.0019825,0.11437,-0.19496,0.046087,1.3945,-0.00070522,0.059943
753.98,0.072809,0.11352,0.20076,0.98851,-0.072522,-9.72,0.20197,1.318,-0.03,5.7671,-4.3147,0.00090379,0.10973,-0.20667,0.046087,1.3868,-0.00045411,0.06833
754,0.11313,0.11008,0.21743,0.98467,-0.072174,-9.7267,0.2119,1.3081,-0.030951,5.7658,-4.3165,-0.00015741,0.1051,-0.21271,0.046087,1.3792,-0.000203,0.076716
754.02,0.12399,0.093694,0.18922,0.98852,-0.062849,-9.7308,0.22181,1.2982,-0.035906,5.7645,-4.3181,-0.001149,0.10046,-0.19801,0.047855,1.373,0,0.081895
754.04,0.10742,0.073086,0.16375,0.99043,-0.057335,-9.7317,0.23168,1.2883,-0.04,5.7632,-4.3196,-0.0020261,0.095824,-0.18332,0.057079,1.373,0,0.073539
754.06,0.080832,0.056683,0.19991,0.9927,-0.077803,-9.7304,0.24136,1.2786,-0.04,5.7618,-4.3207,-0.002404,0.094671,-0.16863,0.066304,1.373,0,0.065183
754.08,0.072687,0.1092,0.18982,0.99369,-0.068856,-9.7247,0.25,1.2734,-0.040566,5.7604,-4.3217,-0.0027233,0.10606,-0.15394,0.075529,1.373,0,0.056827
754.1,0.04781,0.11212,0.17571,0.98756,-0.079813,-9.7348,0.25,1.3048,-0.045805,5.7588,-4.3225,-0.0025941,0.11744,-0.14421,0.084753,1.373,0,0.048471
754.12,0.036801,0.09482,0.17309,0.99535,-0.063122,-9.7326,0.24901,1.334,-0.05099,5.7572,-4.3232,-0.002475,0.12883,-0.15327,0.09038,1.3744,-4.87E-05,0.043374
754.14,0.016243,0.12256,0.18267,0.99591,-0.057928,-9.7258,0.24404,1.3538,-0.055959,5.7556,-4.3238,-0.0023941,0.14022,-0.16234,0.081197,1.382,-0.00029774,0.051692
754.16,0.0026509,0.093754,0.17184,0.99432,-0.062507,-9.7262,0.24,1.3746,-0.06,5.7541,-4.3244,-0.0023525,0.1516,-0.1714,0.072014,1.3896,-0.0005468,0.06001
754.18,0.0071663,0.079382,0.21769,0.99959,-0.065199,-9.7196,0.24,1.3993,-0.06,5.7527,-4.3248,-0.0024641,0.16299,-0.18046,0.062832,1.3972,-0.00079585,0.068328
754.2,0.017631,0.12179,0.22622,0.99035,-0.068775,-9.7424,0.24,1.4241,-0.06,5.7512,-4.3253,-0.0025777,0.17438,-0.1935,0.053649,1.4048,-0.0010449,0.076647
754.22,0.024975,0.14583,0.21022,0.98182,-0.072018,-9.742,0.24,1.4492,-0.06,5.7497,-4.3256,-0.0027,0.18576,-0.22199,0.046087,1.4097,-0.0011615,0.08054
754.24,0.071151,0.1038,0.20389,0.99593,-0.079651,-9.7284,0.24082,1.4741,-0.06,5.7485,-4.3259,-0.0028001,0.19715,-0.25048,0.046087,1.4021,-0.00066013,0.063796
754.26,0.11998,0.10467,0.19594,1.0096,-0.067867,-9.7305,0.24569,1.4985,-0.06,5.7484,-4.3257,-0.0028004,0.20229,-0.27897,0.046087,1.3945,-0.00015878,0.047051
754.28,0.10015,0.070385,0.21187,0.99247,-0.060579,-9.7404,0.25363,1.5194,-0.06,5.7484,-4.3254,-0.002787,0.1866,-0.30747,0.046087,1.3868,0.00034257,0.030307
754.3,0.11355,0.10865,0.18674,0.9878,-0.056405,-9.7378,0.28483,1.5142,-0.06,5.7494,-4.3246,-0.0026823,0.17091,-0.3196,0.046087,1.3792,0.00084393,0.013562
754.32,0.086963,0.072737,0.20196,0.99823,-0.076115,-9.7286,0.31481,1.51,-0.06,5.7504,-4.3238,-0.0025843,0.15521,-0.271,0.046087,1.3744,0.0012025,0.0031712
754.34,0.095685,0.074731,0.17898,1.0002,-0.082311,-9.7339,0.33972,1.51,-0.06,5.7512,-4.323,-0.0025127,0.13952,-0.22241,0.046087,1.382,0.00095272,0.019858
754.36,0.13087,0.037386,0.22286,0.99011,-0.056408,-9.7439,0.36557,1.5091,-0.059072,5.7519,-4.3222,-0.0024552,0.12382,-0.17381,0.046087,1.3897,0.00070291,0.036544
754.38,0.087561,0.061139,0.21211,0.99474,-0.064057,-9.7288,0.39554,1.5041,-0.054077,5.7526,-4.3214,-0.002457,0.10813,-0.12521,0.046087,1.3973,0.0004531,0.05323
754.4,0.0582,0.077658,0.23121,0.99694,-0.066346,-9.7228,0.42452,1.4991,-0.049096,5.7532,-4.3206,-0.0024626,0.092437,-0.087245,0.046087,1.4049,0.00020329,0.069917
754.42,0.093416,0.079377,0.21295,0.99917,-0.077567,-9.7279,0.44915,1.4942,-0.044171,5.7537,-4.3198,-0.0024842,0.076743,-0.090021,0.047807,1.4097,4.66E-05,0.080381
754.44,0.074827,0.11071,0.23747,1.0061,-0.060598,-9.7254,0.47078,1.4892,-0.04,5.7543,-4.3189,-0.0026017,0.063469,-0.092798,0.057042,1.402,0.00029711,0.06365
754.46,0.080319,0.098482,0.20331,1.0098,-0.055484,-9.7301,0.47586,1.4841,-0.04,5.7557,-4.3178,-0.0032212,0.060509,-0.095574,0.066277,1.3944,0.00054759,0.046919
754.48,0.070922,0.080108,0.21073,1.0017,-0.057678,-9.7332,0.47719,1.48,-0.04,5.7571,-4.3167,-0.0038215,0.05755,-0.098351,0.075512,1.3867,0.00079807,0.030188
754.5,0.10694,0.09915,0.18496,1.0027,-0.065254,-9.7127,0.46209,1.48,-0.04,5.7583,-4.3156,-0.0043435,0.05459,-0.10545,0.084747,1.3791,0.0010485,0.013457
754.52,0.10271,0.073207,0.21061,1.0015,-0.061479,-9.7163,0.44703,1.48,-0.04,5.7595,-4.3145,-0.0048587,0.05163,-0.12804,0.090373,1.3745,0.0012011,0.0016325
754.54,0.0884,0.082103,0.2416,0.99842,-0.056743,-9.7296,0.43211,1.48,-0.04,5.7605,-4.3134,-0.0053485,0.048671,-0.15062,0.081164,1.3821,0.00095136,0.0099742
754.56,0.083605,0.08288,0.18065,0.99723,-0.059112,-9.7457,0.41721,1.4791,-0.040929,5.7615,-4.3123,-0.0058023,0.045711,-0.1732,0.071955,1.3897,0.0007016,0.018316
754.58,0.086982,0.071393,0.19498,0.99508,-0.055916,-9.7311,0.40242,1.4741,-0.045861,5.7624,-4.3111,-0.0061161,0.042752,-0.19579,0.062746,1.3973,0.00045183,0.026658
754.6,0.081168,0.031687,0.20006,0.98487,-0.070107,-9.7483,0.38677,1.4692,-0.049192,5.7632,-4.31,-0.0064334,0.039792,-0.20534,0.053538,1.4049,0.00020207,0.034999
754.62,0.087318,0.06683,0.22835,1.0011,-0.078825,-9.7437,0.36666,1.4642,-0.044166,5.764,-4.3088,-0.0067675,0.036832,-0.16055,0.046087,1.4096,0,0.04334
754.64,0.099213,0.050689,0.19548,1.0025,-0.085093,-9.7351,0.34751,1.46,-0.040831,5.7647,-4.3076,-0.0071795,0.033873,-0.11576,0.046087,1.402,0,0.051674
754.66,0.10551,0.053163,0.19242,0.99355,-0.07801,-9.737,0.33295,1.46,-0.045684,5.7656,-4.3064,-0.0079363,0.034465,-0.070971,0.046087,1.3944,0,0.060009
754.68,0.099592,0.075555,0.20392,0.99187,-0.078611,-9.7228,0.31943,1.46,-0.05,5.7664,-4.3052,-0.0087495,0.046318,-0.026182,0.046087,1.3868,0,0.068344
754.7,0.048885,0.07664,0.17727,1.0011,-0.071661,-9.7241,0.31423,1.46,-0.05,5.7673,-4.3039,-0.0099474,0.058172,-0.00096513,0.046087,1.3792,0,0.076678
754.72,0.061958,0.090978,0.22299,1.0014,-0.065368,-9.7247,0.31,1.46,-0.049065,5.7683,-4.3025,-0.011125,0.070026,-0.053047,0.044411,1.3743,-4.55E-05,0.083496
754.74,0.020862,0.092584,0.23122,0.9939,-0.061963,-9.7387,0.31,1.46,-0.044056,5.769,-4.3012,-0.012219,0.08188,-0.10513,0.0352,1.382,-0.00029529,0.083496
754.76,0.015234,0.072306,0.18786,0.98735,-0.063478,-9.7467,0.30905,1.46,-0.04,5.7698,-4.2999,-0.013337,0.093734,-0.15721,0.025989,1.3896,-0.00054512,0.083496
754.78,0.043353,0.10233,0.20402,1.001,-0.074528,-9.7363,0.30407,1.46,-0.04,5.7704,-4.2985,-0.014553,0.10559,-0.20929,0.016778,1.3972,-0.00079494,0.083496
754.8,0.055014,0.12462,0.20117,1.0007,-0.074988,-9.7257,0.29909,1.46,-0.04,5.771,-4.2972,-0.015756,0.11744,-0.24134,0.0075669,1.4048,-0.0010448,0.083496
754.82,0.044178,0.13199,0.25017,0.99023,-0.071075,-9.7272,0.29412,1.46,-0.04,5.7715,-4.2959,-0.016903,0.12929,-0.20262,0.0016481,1.4097,-0.0012053,0.083496
754.84,0.079038,0.10532,0.24502,0.98742,-0.067348,-9.711,0.29,1.46,-0.04,5.7719,-4.2946,-0.017944,0.14115,-0.1639,0.010881,1.4021,-0.00095488,0.083496
754.86,0.079431,0.070615,0.21378,0.99283,-0.052613,-9.7236,0.29,1.46,-0.04,5.7716,-4.2935,-0.018515,0.1488,-0.12517,0.020114,1.3945,-0.00070446,0.083496
754.88,0.050754,0.064179,0.18109,0.99625,-0.047836,-9.7315,0.28798,1.46,-0.040504,5.7712,-4.2923,-0.01904,0.14202,-0.086451,0.029347,1.3868,-0.00045404,0.083496
754.9,0.032617,0.073919,0.21632,0.99599,-0.050151,-9.7354,0.26698,1.46,-0.045755,5.7702,-4.2912,-0.019199,0.13523,-0.05995,0.03858,1.3792,-0.00020362,0.083496
754.92,0.048698,0.040513,0.24341,0.98801,-0.055719,-9.7339,0.24529,1.46,-0.049059,5.7692,-4.2901,-0.019364,0.12844,-0.078085,0.046087,1.373,0,0.083496
754.94,0.0040083,0.073434,0.26036,0.98841,-0.06047,-9.72,0.22073,1.46,-0.044146,5.7682,-4.289,-0.019548,0.12166,-0.09622,0.046087,1.373,0,0.083496
754.96,0.0056508,0.079971,0.21754,0.98752,-0.064192,-9.7242,0.19687,1.4608,-0.04,5.7672,-4.2879,-0.019774,0.11487,-0.11435,0.046087,1.373,0,0.083496
754.98,0.077199,0.11325,0.17573,0.99888,-0.066079,-9.7345,0.17682,1.4658,-0.04,5.7662,-4.2868,-0.020205,0.10809,-0.13249,0.046087,1.373,0,0.083496
755,0.048186,0.073094,0.20102,1.0008,-0.05436,-9.7337,0.15677,1.47,-0.040809,5.7652,-4.2856,-0.020637,0.1013,-0.14285,0.046087,1.373,0,0.083496
755.02,0.062635,0.06527,0.2086,1.0004,-0.055687,-9.7266,0.13667,1.47,-0.045832,5.7643,-4.2845,-0.021071,0.094512,-0.12105,0.047864,1.373,0,0.083496
755.04,0.04123,0.11378,0.23333,0.99236,-0.062853,-9.7458,0.11588,1.47,-0.050823,5.7632,-4.2833,-0.021413,0.087725,-0.099241,0.057077,1.373,0,0.083496
755.06,0.007654,0.019826,0.22473,0.98726,-0.06744,-9.7402,0.091714,1.47,-0.055657,5.762,-4.2822,-0.021333,0.086905,-0.077434,0.066289,1.373,0,0.083496
755.08,0.018599,0.053022,0.21748,0.99164,-0.061868,-9.7383,0.071065,1.47,-0.06,5.7608,-4.2811,-0.0212,0.1067,-0.055628,0.075501,1.373,0,0.083496
755.1,0.026965,0.094355,0.19743,0.99759,-0.059886,-9.72,0.081545,1.47,-0.06,5.7593,-4.2799,-0.020645,0.12649,-0.043382,0.084713,1.373,0,0.083496
755.12,-0.0074318,0.092372,0.20897,0.9905,-0.064757,-9.7474,0.091933,1.47,-0.059034,5.7578,-4.2787,-0.020117,0.14629,-0.066378,0.090424,1.373,0,0.083496
755.14,0.013263,0.064107,0.21861,0.98615,-0.066452,-9.7446,0.10193,1.47,-0.054033,5.7564,-4.2775,-0.019696,0.16608,-0.089374,0.081211,1.373,0,0.083496
755.16,0.056682,0.086608,0.23436,0.98997,-0.06941,-9.7323,0.11192,1.471,-0.05,5.755,-4.2763,-0.019277,0.18587,-0.11237,0.071997,1.373,0,0.083496
755.18,0.053022,0.10581,0.24028,0.99722,-0.048988,-9.7329,0.12183,1.4759,-0.05,5.7536,-4.2751,-0.018867,0.20567,-0.13537,0.062784,1.373,0,0.083496
755.2,0.0672,0.07243,0.19532,1.0022,-0.063211,-9.7211,0.13263,1.4809,-0.05,5.7522,-4.2739,-0.018474,0.22546,-0.1526,0.053571,1.373,0,0.083496
755.22,0.095654,0.05706,0.20078,0.99197,-0.069744,-9.7313,0.14758,1.4859,-0.05,5.7507,-4.2726,-0.01815,0.24525,-0.14839,0.046087,1.373,4.69E-05,0.083496
755.24,0.06252,0.087839,0.18763,1.0002,-0.058438,-9.733,0.16164,1.4908,-0.05,5.7494,-4.2711,-0.017816,0.26505,-0.14417,0.046087,1.373,0.00029688,0.083496
755.26,-0.004246,0.09067,0.19756,0.98008,-0.049082,-9.7232,0.17136,1.4957,-0.05,5.7484,-4.2686,-0.017433,0.2753,-0.13995,0.046087,1.373,0.00054684,0.083496
755.28,0.0070696,0.076399,0.19107,0.98419,-0.054128,-9.7284,0.18173,1.5023,-0.05,5.7474,-4.2659,-0.017041,0.2546,-0.13574,0.046087,1.373,0.00079679,0.083496
755.3,0.038382,0.088135,0.21412,1.0029,-0.060754,-9.7285,0.19735,1.5231,-0.05,5.7466,-4.2618,-0.016584,0.23391,-0.13061,0.046087,1.373,0.0010467,0.083496
755.32,0.048406,0.076638,0.22998,0.98785,-0.059467,-9.7339,0.21379,1.5447,-0.05,5.7457,-4.2578,-0.016148,0.21321,-0.12221,0.047811,1.373,0.00125,0.080374
755.34,0.049196,0.065099,0.23612,0.97645,-0.070447,-9.7298,0.23375,1.5697,-0.05,5.7449,-4.2541,-0.015791,0.19251,-0.11382,0.057035,1.373,0.00125,0.063663
755.36,0.085019,0.071007,0.23501,1.0028,-0.071708,-9.7284,0.25369,1.5946,-0.05,5.7441,-4.2505,-0.015465,0.17181,-0.10542,0.066259,1.373,0.00125,0.046952
755.38,0.085632,0.083988,0.21341,0.99824,-0.057631,-9.7131,0.27359,1.6195,-0.05,5.7432,-4.247,-0.015265,0.15111,-0.097021,0.075483,1.373,0.00125,0.030241
755.4,0.068287,0.063662,0.18751,0.98766,-0.060629,-9.7245,0.29349,1.6444,-0.05,5.7423,-4.2435,-0.015073,0.13041,-0.085488,0.084707,1.373,0.00125,0.01353
755.42,0.064338,0.077125,0.22902,0.98098,-0.073366,-9.7114,0.31344,1.6693,-0.05,5.7414,-4.2401,-0.014918,0.10971,-0.062232,0.092175,1.373,0.0012025,0.0031761
755.44,0.028266,0.072603,0.23132,0.98334,-0.06179,-9.7227,0.33329,1.6941,-0.049177,5.7405,-4.2368,-0.014745,0.089014,-0.038976,0.092175,1.373,0.00095266,0.019861
755.46,0.019371,0.057451,0.20413,0.99461,-0.064693,-9.7338,0.35262,1.7183,-0.044345,5.7394,-4.2341,-0.0145,0.07337,-0.01572,0.092175,1.373,0.00070287,0.036547
755.48,0.026994,0.11051,0.23925,0.98999,-0.069586,-9.7205,0.36841,1.7368,-0.04,5.7383,-4.2314,-0.014244,0.075992,0.0075362,0.092175,1.373,0.00045307,0.053232
755.5,0.04352,0.10704,0.23071,0.99405,-0.067406,-9.7447,0.35267,1.7053,-0.04,5.737,-4.229,-0.013902,0.078614,0.02026,0.092175,1.373,0.00020328,0.069918
755.52,0.060744,0.099028,0.21824,0.99723,-0.064589,-9.7394,0.33708,1.6742,-0.04,5.7357,-4.2267,-0.013577,0.081237,-0.0043701,0.092175,1.3715,0,0.080388
755.54,0.053598,0.07597,0.20943,0.99365,-0.060225,-9.7297,0.32218,1.6444,-0.04,5.7344,-4.2244,-0.013322,0.083859,-0.029,0.092175,1.3639,0,0.063697
755.56,0.058915,0.098851,0.27324,0.9879,-0.051791,-9.7258,0.30725,1.6145,-0.04,5.7332,-4.2221,-0.013006,0.086482,-0.05363,0.092175,1.3563,0,0.047007
755.58,0.078132,0.089483,0.25807,0.9844,-0.070221,-9.7349,0.29222,1.5844,-0.04,5.7319,-4.2198,-0.012438,0.089104,-0.07826,0.092175,1.3487,0,0.030316
755.6,0.030461,0.096167,0.24663,1.004,-0.069798,-9.7468,0.27719,1.5544,-0.039063,5.7306,-4.2176,-0.011891,0.091727,-0.10519,0.092175,1.341,0,0.013625
755.62,0.027886,0.082678,0.18668,0.99972,-0.069765,-9.7201,0.26214,1.5243,-0.034048,5.7293,-4.2153,-0.011426,0.094349,-0.14056,0.09048,1.3362,4.60E-05,0.0030697
755.64,0.00071955,0.030186,0.17091,0.99049,-0.071159,-9.7192,0.24724,1.4945,-0.03,5.728,-4.2131,-0.011148,0.096971,-0.17593,0.081257,1.3439,0.00029613,0.01978
755.66,-0.0043651,0.041192,0.21134,0.9794,-0.071899,-9.728,0.23296,1.4659,-0.03,5.7267,-4.2109,-0.011582,0.098397,-0.2113,0.072033,1.3515,0.0005463,0.036491
755.68,0.027627,0.080908,0.25048,0.98471,-0.06062,-9.7108,0.22048,1.4405,-0.03,5.7253,-4.2087,-0.01211,0.095777,-0.24668,0.062809,1.3591,0.00079647,0.053202
755.7,0.0173,0.09268,0.27272,0.99703,-0.072153,-9.7289,0.22574,1.4457,-0.03,5.7238,-4.2063,-0.013408,0.093158,-0.27136,0.053585,1.3668,0.0010466,0.069912
755.72,-0.0016414,0.1202,0.23842,0.98978,-0.059937,-9.7328,0.23,1.4519,-0.030948,5.7222,-4.204,-0.014676,0.090538,-0.25491,0.047806,1.373,0.0012034,0.083496
755.74,0.053507,0.091985,0.24478,0.9795,-0.046911,-9.7279,0.23,1.4619,-0.035932,5.7207,-4.2018,-0.015825,0.087918,-0.23846,0.056992,1.373,0.00095423,0.083496
755.76,0.093015,0.068804,0.22619,0.9971,-0.050925,-9.7422,0.23092,1.4709,-0.04,5.7192,-4.1996,-0.016973,0.085299,-0.22201,0.066179,1.373,0.00070507,0.083496
755.78,0.070739,0.066104,0.18482,1.0021,-0.053262,-9.7264,0.2359,1.4759,-0.04,5.7177,-4.1973,-0.018123,0.082679,-0.20556,0.075365,1.373,0.00045592,0.083496
755.8,0.10111,0.023992,0.19435,0.98558,-0.058077,-9.7414,0.24088,1.4818,-0.04,5.7162,-4.1951,-0.019264,0.08006,-0.19458,0.084551,1.373,0.00020676,0.083496
755.82,0.10476,0.027438,0.22194,0.99728,-0.058503,-9.73,0.24586,1.4917,-0.04,5.7147,-4.1929,-0.020361,0.07744,-0.20378,0.090602,1.3743,0,0.083496
755.84,0.13017,0.069123,0.17037,1.0018,-0.060675,-9.733,0.25081,1.5016,-0.040815,5.7133,-4.1906,-0.021362,0.07482,-0.21297,0.081359,1.3819,0,0.083496
755.86,0.14078,0.092553,0.23512,0.99822,-0.059306,-9.7432,0.25568,1.5114,-0.045678,5.7121,-4.1885,-0.021929,0.073104,-0.22217,0.072115,1.3896,0,0.083496
755.88,0.1497,0.10027,0.24423,1.0009,-0.074833,-9.7353,0.26116,1.52,-0.05,5.711,-4.1864,-0.022447,0.074426,-0.23137,0.062872,1.3972,0,0.083496
755.9,0.11847,0.079572,0.21611,1.0057,-0.065977,-9.7296,0.27155,1.52,-0.05,5.71,-4.1842,-0.022602,0.075747,-0.23083,0.053629,1.4049,0,0.083496
755.92,0.058121,0.11246,0.23176,0.99483,-0.062923,-9.7099,0.28093,1.52,-0.05,5.709,-4.182,-0.022764,0.077069,-0.19574,0.047789,1.4097,0,0.083496
755.94,0.045487,0.1093,0.1898,0.98431,-0.063424,-9.7338,0.28591,1.52,-0.05,5.708,-4.1798,-0.022956,0.078391,-0.16065,0.057026,1.402,0,0.083496
755.96,0.052067,0.09723,0.20142,0.99171,-0.058104,-9.7285,0.29179,1.52,-0.05,5.707,-4.1777,-0.023216,0.079713,-0.12556,0.066264,1.3944,0,0.083496
755.98,0.035853,0.069365,0.20806,0.99516,-0.072911,-9.7303,0.30175,1.52,-0.05,5.7059,-4.1755,-0.023765,0.081034,-0.090473,0.075502,1.3868,0,0.083496
756,0.0049802,0.073252,0.21764,1.0008,-0.059655,-9.7331,0.31,1.5191,-0.05,5.7048,-4.1733,-0.024315,0.082356,-0.066098,0.08474,1.3791,0,0.083496
756.02,-0.022534,0.077356,0.24148,0.9928,-0.06952,-9.7264,0.31,1.5141,-0.05,5.7037,-4.1711,-0.024868,0.083678,-0.081873,0.090383,1.3744,-4.86E-05,0.083496
756.04,0.029214,0.073676,0.19156,0.98772,-0.070349,-9.7099,0.31084,1.5092,-0.05,5.7027,-4.169,-0.025541,0.084999,-0.097649,0.081202,1.382,-0.00029761,0.083496
756.06,0.030185,0.056755,0.20671,0.99739,-0.060535,-9.7322,0.31566,1.5043,-0.05,5.7024,-4.1677,-0.026741,0.085149,-0.11342,0.072021,1.3896,-0.00054661,0.083496
756.08,0.063988,0.061672,0.20001,0.99479,-0.049146,-9.7417,0.32052,1.4984,-0.05,5.7021,-4.1664,-0.028025,0.081267,-0.1292,0.062841,1.3972,-0.00079561,0.083496
756.1,0.09637,0.084762,0.19099,0.98991,-0.056829,-9.7532,0.32574,1.4828,-0.05,5.7024,-4.1655,-0.029972,0.077385,-0.14162,0.05366,1.4048,-0.0010446,0.083496
756.12,0.1027,0.080188,0.19172,0.99105,-0.062931,-9.7386,0.33092,1.4672,-0.050917,5.7026,-4.1646,-0.031879,0.073503,-0.14216,0.046087,1.4111,-0.001206,0.083496
756.14,0.011482,0.063468,0.20086,0.99403,-0.072547,-9.7412,0.33592,1.4522,-0.055923,5.7027,-4.1636,-0.033622,0.069622,-0.14269,0.046087,1.4111,-0.00095471,0.083496
756.16,-0.016976,0.085396,0.23359,0.99512,-0.063384,-9.7187,0.34093,1.4372,-0.06,5.7028,-4.1626,-0.035317,0.06574,-0.14323,0.046087,1.4111,-0.00070343,0.083496
756.18,-0.067032,0.066206,0.19579,0.99862,-0.067786,-9.7085,0.34592,1.4222,-0.06,5.7028,-4.1615,-0.036824,0.061858,-0.14376,0.046087,1.4111,-0.00045215,0.083496
756.2,-0.076535,0.11854,0.21108,0.979,-0.072242,-9.7146,0.35,1.4073,-0.06,5.7027,-4.1604,-0.03831,0.057977,-0.14689,0.046087,1.4111,-0.00020087,0.083496
756.22,-0.11046,0.10175,0.25858,0.98073,-0.063253,-9.7154,0.35,1.3923,-0.06,5.7025,-4.1592,-0.039712,0.054095,-0.15942,0.046087,1.4111,0,0.080156
756.24,-0.11293,0.090228,0.26626,0.99771,-0.06876,-9.7398,0.35,1.3791,-0.05911,5.7026,-4.1581,-0.041074,0.050718,-0.17195,0.046087,1.4111,0,0.063507
756.26,-0.11779,0.083283,0.27401,1.0032,-0.080385,-9.729,0.35,1.3741,-0.054081,5.7036,-4.1575,-0.042255,0.049359,-0.18448,0.046087,1.4111,0,0.046857
756.28,-0.023653,0.07307,0.24402,1.0152,-0.060877,-9.7179,0.34906,1.3719,-0.050942,5.7045,-4.157,-0.043418,0.047999,-0.19701,0.046087,1.4111,0,0.030207
756.3,0.012227,0.064081,0.23954,1.0102,-0.056335,-9.7172,0.34406,1.3819,-0.055944,5.7053,-4.1563,-0.044513,0.04664,-0.21177,0.046087,1.4111,0,0.013558
756.32,0.085216,0.079746,0.21961,0.99804,-0.069329,-9.7299,0.34,1.3929,-0.059047,5.7061,-4.1555,-0.045601,0.04528,-0.23479,0.044372,1.4111,0,0.0031071
756.34,0.13971,0.077321,0.21132,0.99853,-0.070807,-9.7226,0.34,1.408,-0.054002,5.7067,-4.1547,-0.046662,0.043921,-0.25781,0.035137,1.4111,0,0.019839
756.36,0.17038,0.098344,0.2373,1.0069,-0.065085,-9.7241,0.34,1.421,-0.05,5.7073,-4.1539,-0.047721,0.042561,-0.28083,0.025901,1.4111,0,0.036571
756.38,0.17471,0.072705,0.21487,1.0084,-0.06196,-9.732,0.34,1.4259,-0.05,5.7078,-4.153,-0.048771,0.041202,-0.30386,0.016666,1.4111,0,0.053303
756.4,0.1071,0.10037,0.18235,0.99841,-0.069885,-9.7348,0.34,1.4317,-0.05,5.7083,-4.1521,-0.049824,0.039842,-0.31271,0.0074304,1.4111,0,0.070035
756.42,0.047291,0.094759,0.16921,0.99171,-0.072198,-9.7268,0.34,1.4416,-0.05,5.7085,-4.151,-0.050886,0.038483,-0.26806,0.0017938,1.4096,-4.87E-05,0.083496
756.44,0.010613,0.055926,0.19224,0.99365,-0.068956,-9.7381,0.34,1.4515,-0.05,5.7089,-4.15,-0.051867,0.037123,-0.22342,0.010972,1.402,-0.00029758,0.083496
756.46,-0.015934,0.055253,0.2434,0.9981,-0.059496,-9.7551,0.34,1.4611,-0.05,5.7092,-4.1493,-0.052459,0.036056,-0.17877,0.02015,1.3944,-0.00054651,0.083496
756.48,-0.053081,0.097176,0.23954,0.9954,-0.049901,-9.7457,0.33885,1.47,-0.05,5.7096,-4.1485,-0.053022,0.036056,-0.13413,0.029328,1.3868,-0.00079544,0.083496
756.5,-0.026082,0.096403,0.24173,1.0021,-0.05412,-9.7236,0.32302,1.47,-0.05,5.7101,-4.1479,-0.053313,0.036056,-0.099007,0.038506,1.3792,-0.0010444,0.083496
756.52,0.042472,0.065577,0.24629,0.99206,-0.059224,-9.7328,0.30911,1.4709,-0.049106,5.7105,-4.1472,-0.053613,0.036056,-0.099899,0.046087,1.373,-0.0012062,0.083496
756.54,0.14061,0.045711,0.20808,1.0059,-0.055711,-9.7412,0.30406,1.4759,-0.04406,5.7108,-4.1465,-0.05395,0.036056,-0.10079,0.046087,1.373,-0.00095463,0.083496
756.56,0.22817,0.072572,0.16276,0.99719,-0.054741,-9.734,0.29903,1.48,-0.04,5.711,-4.1457,-0.054305,0.036056,-0.10168,0.046087,1.373,-0.00070303,0.083496
756.58,0.2601,0.092909,0.18503,0.99799,-0.044009,-9.731,0.29405,1.48,-0.04,5.7111,-4.1448,-0.054727,0.036056,-0.10257,0.046087,1.373,-0.00045143,0.083496
756.6,0.22975,0.093812,0.14549,0.99526,-0.054603,-9.7354,0.28906,1.48,-0.040935,5.7113,-4.1438,-0.055157,0.036056,-0.11145,0.046087,1.373,-0.00019982,0.083496
756.62,0.26349,0.083521,0.1848,0.99869,-0.059924,-9.7319,0.28409,1.48,-0.045913,5.7113,-4.1428,-0.055618,0.036056,-0.14945,0.046087,1.373,-5.13E-05,0.083496
756.64,0.19916,0.10362,0.15302,0.99121,-0.073859,-9.7398,0.27914,1.48,-0.05,5.7113,-4.1418,-0.056017,0.036056,-0.18744,0.046087,1.373,-0.00030071,0.083496
756.66,0.054732,0.12219,0.12832,0.98814,-0.068617,-9.7328,0.27435,1.48,-0.05,5.7114,-4.1412,-0.05615,0.037088,-0.22544,0.046087,1.373,-0.0005501,0.083496
756.68,-0.038106,0.088177,0.20869,0.97795,-0.070728,-9.7343,0.26951,1.4795,-0.049513,5.7114,-4.1407,-0.056253,0.042431,-0.26343,0.046087,1.373,-0.00079948,0.083496
756.7,-0.044736,0.098425,0.28566,0.99249,-0.07452,-9.7273,0.26424,1.4742,-0.044238,5.7115,-4.1404,-0.056102,0.047773,-0.28698,0.046087,1.373,-0.0010489,0.083496
756.72,-0.045526,0.12429,0.2648,0.9901,-0.079878,-9.7336,0.25902,1.469,-0.04,5.7116,-4.1401,-0.05597,0.053116,-0.25876,0.047868,1.373,-0.0012017,0.083496
756.74,-0.023093,0.11261,0.24578,1.0012,-0.060157,-9.7338,0.25404,1.464,-0.04,5.7116,-4.1396,-0.055909,0.058458,-0.23054,0.057068,1.373,-0.00095218,0.083496
756.76,0.0021762,0.084471,0.24535,1.0034,-0.062037,-9.734,0.25,1.4591,-0.04,5.7115,-4.1392,-0.055883,0.0638,-0.20232,0.066268,1.373,-0.00070265,0.083496
756.78,0.090315,0.10104,0.21566,1.0074,-0.068048,-9.7278,0.25,1.4541,-0.04,5.7114,-4.1386,-0.055999,0.069143,-0.1741,0.075468,1.373,-0.00045312,0.083496
756.8,0.14441,0.12895,0.19896,0.99255,-0.06127,-9.7228,0.25,1.4491,-0.04,5.7112,-4.1379,-0.056126,0.074485,-0.15431,0.084668,1.373,-0.00020359,0.083496
756.82,0.17709,0.11362,0.20388,0.99093,-0.066285,-9.7329,0.25,1.4441,-0.04,5.7109,-4.1371,-0.056304,0.079827,-0.16473,0.092175,1.373,0,0.083496
756.84,0.18435,0.066491,0.22974,0.99194,-0.066547,-9.7204,0.25,1.44,-0.04,5.7106,-4.1364,-0.056456,0.08517,-0.17515,0.092175,1.373,0,0.083496
756.86,0.14363,0.10275,0.23724,0.98463,-0.067625,-9.7273,0.25,1.44,-0.04,5.7103,-4.1357,-0.056482,0.089817,-0.18558,0.092175,1.373,0,0.083496
756.88,0.050915,0.075675,0.1991,0.99104,-0.070364,-9.7341,0.24955,1.4405,-0.040454,5.7098,-4.1351,-0.0565,0.091689,-0.196,0.092175,1.373,0,0.083496
756.9,-0.043166,0.05582,0.22348,0.9992,-0.069606,-9.7263,0.24433,1.4457,-0.045672,5.7092,-4.1344,-0.056439,0.09356,-0.20265,0.092175,1.373,0,0.083496
756.92,-0.061106,0.044909,0.22437,0.98534,-0.068335,-9.7197,0.23827,1.4509,-0.05,5.7086,-4.1337,-0.056391,0.095432,-0.19597,0.09062,1.3742,-4.22E-05,0.083496
756.94,-0.10478,0.066781,0.20749,0.98417,-0.058977,-9.7246,0.22811,1.4559,-0.05,5.7079,-4.1329,-0.056395,0.097303,-0.18928,0.081331,1.3819,-0.00029412,0.083496
756.96,-0.12148,0.074232,0.22965,0.99607,-0.063098,-9.735,0.22,1.462,-0.05,5.7073,-4.1321,-0.056432,0.099175,-0.1826,0.072041,1.3896,-0.00054608,0.083496
756.98,-0.055726,0.089271,0.2196,0.99774,-0.06247,-9.744,0.22,1.4718,-0.05,5.7065,-4.1312,-0.056593,0.10105,-0.17592,0.062751,1.3973,-0.00079803,0.083496
757,-0.0015139,0.039172,0.22354,0.99438,-0.055982,-9.7376,0.22,1.4808,-0.05,5.7058,-4.1302,-0.056763,0.10292,-0.16808,0.053462,1.405,-0.00105,0.083496
757.02,0.096011,0.075183,0.24034,0.99562,-0.055062,-9.7361,0.22,1.4859,-0.05,5.705,-4.1291,-0.056975,0.10479,-0.15528,0.047974,1.4095,-0.0011476,0.083496
757.04,0.1766,0.073233,0.1785,1.0051,-0.061088,-9.7376,0.21911,1.4909,-0.050892,5.7042,-4.1282,-0.057181,0.10666,-0.14248,0.057128,1.402,-0.00065108,0.083496
757.06,0.20148,0.099837,0.1884,0.99297,-0.065043,-9.7351,0.21433,1.4957,-0.055673,5.7034,-4.128,-0.057365,0.10633,-0.12967,0.066282,1.3944,-0.00015453,0.083496
757.08,0.19563,0.053233,0.1899,0.97515,-0.048817,-9.7388,0.21,1.499,-0.06,5.7026,-4.1279,-0.057554,0.096923,-0.11687,0.075436,1.3868,0.00034203,0.083496
757.1,0.13036,0.090635,0.20379,1.0015,-0.056552,-9.7166,0.21,1.4886,-0.06,5.7017,-4.1283,-0.057782,0.087515,-0.10611,0.08459,1.3792,0.00083858,0.083496
757.12,0.080484,0.086438,0.17678,0.99771,-0.077012,-9.7051,0.20912,1.4774,-0.06,5.7007,-4.1286,-0.058007,0.078108,-0.1022,0.092175,1.373,0.0016799,0.083496
757.14,-0.021715,0.11124,0.23222,0.99277,-0.081159,-9.7226,0.20409,1.4623,-0.06,5.6998,-4.1289,-0.058223,0.0687,-0.098297,0.092175,1.373,0.0041874,0.083496
757.16,-0.093155,0.082565,0.25365,0.98575,-0.064789,-9.7248,0.19907,1.4472,-0.06,5.6989,-4.1291,-0.058466,0.059293,-0.094391,0.092175,1.373,0.006695,0.083496
757.18,-0.13228,0.067217,0.24029,0.9855,-0.066952,-9.7235,0.19409,1.4323,-0.06,5.6979,-4.129,-0.05882,0.049885,-0.090486,0.092175,1.373,0.0092025,0.083496
757.2,-0.079113,0.073178,0.22272,0.99558,-0.076651,-9.7314,0.1909,1.4173,-0.059103,5.6968,-4.1289,-0.059177,0.040478,-0.090505,0.092175,1.373,0.01171,0.083496
757.22,0.021003,0.099794,0.22535,1.0127,-0.080812,-9.7357,0.1959,1.4023,-0.054096,5.6958,-4.1287,-0.059546,0.03107,-0.10532,0.092175,1.373,0.013239,0.080391
757.24,0.097751,0.097537,0.21057,1.0032,-0.068965,-9.7252,0.2,1.3874,-0.050868,5.6948,-4.1286,-0.059956,0.021663,-0.12014,0.092175,1.373,0.010496,0.063739
757.26,0.20029,0.10592,0.18982,0.99881,-0.06063,-9.7226,0.2,1.3731,-0.055644,5.6942,-4.1286,-0.060541,0.014493,-0.13496,0.092175,1.373,0.007754,0.047086
757.28,0.22483,0.14009,0.1927,0.98404,-0.078601,-9.7252,0.20092,1.3609,-0.06,5.6936,-4.1286,-0.061153,0.016243,-0.14977,0.092175,1.373,0.0050116,0.030433
757.3,0.24935,0.099494,0.17895,0.99481,-0.048492,-9.7151,0.2114,1.3714,-0.06,5.6932,-4.1288,-0.062032,0.017993,-0.16646,0.092175,1.373,0.0022693,0.01378
757.32,0.20298,0.079855,0.16639,1.0008,-0.065267,-9.7353,0.2218,1.3818,-0.059099,5.6928,-4.1289,-0.062902,0.019743,-0.18959,0.090579,1.3743,-4.33E-05,0.0028906
757.34,0.10595,0.12441,0.17843,1.0005,-0.066038,-9.7526,0.23186,1.3919,-0.054068,5.6923,-4.1288,-0.063735,0.021494,-0.21272,0.08133,1.3819,-0.00029414,0.019647
757.36,-0.0049828,0.10173,0.17025,0.99562,-0.059727,-9.7316,0.24192,1.4019,-0.05,5.6918,-4.1287,-0.064615,0.023244,-0.23586,0.072081,1.3896,-0.000545,0.036404
757.38,-0.04295,0.11083,0.21939,0.99554,-0.068805,-9.7227,0.25192,1.4119,-0.05,5.6912,-4.1284,-0.065681,0.024994,-0.25899,0.062831,1.3972,-0.00079586,0.053161
757.4,-0.098492,0.065929,0.23673,1.0034,-0.077054,-9.7295,0.26095,1.4229,-0.049046,5.6906,-4.1282,-0.066736,0.026744,-0.26367,0.053582,1.4049,-0.0010467,0.069918
757.42,-0.12342,0.046422,0.1921,0.98961,-0.06822,-9.7215,0.2659,1.4377,-0.044095,5.6899,-4.1278,-0.067747,0.028494,-0.20185,0.046087,1.4097,-0.0011553,0.083496
757.44,-0.08961,0.027158,0.19939,0.99384,-0.05505,-9.7154,0.27082,1.4516,-0.04,5.6893,-4.1274,-0.068717,0.030244,-0.14002,0.046087,1.402,-0.00065579,0.083496
757.46,-0.071138,0.035011,0.18297,0.99749,-0.057636,-9.7214,0.27558,1.4612,-0.04,5.6889,-4.1275,-0.069513,0.034163,-0.078194,0.046087,1.3944,-0.00015632,0.083496
757.48,0.018351,0.047633,0.20969,0.99539,-0.067429,-9.7279,0.28,1.4696,-0.04,5.6887,-4.1276,-0.070304,0.046138,-0.016368,0.046087,1.3868,0.00034315,0.083496
757.5,0.09922,0.081913,0.18006,0.97968,-0.074876,-9.7271,0.28,1.4643,-0.04,5.6886,-4.1281,-0.071032,0.058114,0.022164,0.046087,1.3792,0.00084261,0.083496
757.52,0.1706,0.07807,0.15883,0.97056,-0.055083,-9.713,0.28,1.4591,-0.040949,5.6885,-4.1286,-0.07175,0.070089,-0.022985,0.047795,1.373,0.0017131,0.081949
757.54,0.21045,0.071092,0.16143,0.98672,-0.054085,-9.7317,0.28,1.454,-0.045976,5.6883,-4.1289,-0.072429,0.082065,-0.068133,0.057057,1.373,0.0042252,0.073559
757.56,0.19891,0.076825,0.14629,0.99546,-0.065172,-9.7331,0.28,1.448,-0.05,5.6881,-4.1291,-0.073167,0.09404,-0.11328,0.066319,1.373,0.0067374,0.065169
757.58,0.13441,0.11494,0.17126,0.99938,-0.059381,-9.7306,0.28,1.4381,-0.05,5.6878,-4.1291,-0.074127,0.10602,-0.15843,0.075581,1.373,0.0092495,0.056779
757.6,0.025419,0.11244,0.25186,1.0053,-0.069538,-9.7215,0.28,1.4291,-0.05,5.6874,-4.1292,-0.07508,0.11799,-0.19607,0.084844,1.373,0.011762,0.048389
757.62,0.0068635,0.0722,0.23132,0.99819,-0.065272,-9.7324,0.28,1.4241,-0.05,5.687,-4.129,-0.076005,0.12997,-0.2067,0.090267,1.373,0.013181,0.041748
757.64,-0.040108,0.080502,0.20784,0.98341,-0.063685,-9.7462,0.27813,1.42,-0.050933,5.6864,-4.1289,-0.076888,0.1372,-0.21733,0.081115,1.373,0.01045,0.041748
757.66,-0.0536,0.072699,0.16747,0.9981,-0.06307,-9.7328,0.26835,1.42,-0.055827,5.6852,-4.1288,-0.077608,0.12782,-0.22796,0.071964,1.373,0.0077202,0.041748
757.68,-0.025574,0.072183,0.18749,1.0012,-0.058308,-9.7336,0.25776,1.4222,-0.06,5.6839,-4.1286,-0.078298,0.11843,-0.2386,0.062812,1.373,0.0049899,0.041748
757.7,0.0094266,0.1334,0.20133,1.0002,-0.074321,-9.7379,0.24254,1.4375,-0.06,5.6826,-4.1283,-0.07883,0.10905,-0.24703,0.053661,1.373,0.0022596,0.041748
757.72,0.071548,0.13242,0.20016,0.98172,-0.070178,-9.7454,0.22823,1.4527,-0.06,5.6813,-4.128,-0.079364,0.099664,-0.24766,0.046087,1.373,0.00047677,0.041748
757.74,0.10017,0.11082,0.17793,0.98616,-0.066639,-9.7316,0.21814,1.4678,-0.06,5.68,-4.1276,-0.079906,0.09028,-0.24829,0.046087,1.373,0.0032423,0.041748
757.76,0.13045,0.10061,0.20002,0.98163,-0.071609,-9.717,0.2081,1.4828,-0.06,5.6787,-4.1271,-0.080479,0.080896,-0.24892,0.046087,1.373,0.0060077,0.041748
757.78,0.18905,0.04471,0.19371,0.98372,-0.075622,-9.7208,0.19823,1.4977,-0.06,5.6773,-4.1266,-0.081173,0.071511,-0.24955,0.046087,1.373,0.0087732,0.041748
757.8,0.18561,0.026777,0.16903,0.98494,-0.064289,-9.728,0.18747,1.5117,-0.059157,5.6759,-4.126,-0.081871,0.062127,-0.24704,0.046087,1.373,0.011539,0.041748
757.82,0.16664,0.049494,0.19294,0.98727,-0.059827,-9.7192,0.17226,1.5218,-0.054088,5.6745,-4.1252,-0.082588,0.052743,-0.23242,0.04793,1.373,0.0132,0.040079
757.84,0.069116,0.055393,0.21046,1.0054,-0.065815,-9.7346,0.15818,1.5327,-0.05,5.6731,-4.1245,-0.083192,0.043359,-0.2178,0.057124,1.373,0.010457,0.031751
757.86,0.018802,0.096193,0.21636,1.0059,-0.069219,-9.7362,0.14875,1.5469,-0.05,5.672,-4.124,-0.083361,0.037538,-0.20318,0.066318,1.373,0.0077144,0.023423
757.88,-0.021987,0.0822,0.21955,0.99804,-0.065563,-9.7363,0.14038,1.5596,-0.05,5.671,-4.1234,-0.083488,0.044226,-0.18857,0.075511,1.373,0.0049715,0.015094
757.9,0.0081754,0.035941,0.21057,1.0032,-0.073722,-9.7357,0.1457,1.5543,-0.05,5.6702,-4.123,-0.083159,0.050913,-0.16622,0.084705,1.373,0.0022285,0.0067663
757.92,-0.037533,0.1024,0.23458,1.0014,-0.068834,-9.7188,0.15288,1.5481,-0.05,5.6693,-4.1225,-0.082857,0.057601,-0.11439,0.090444,1.373,0,0.0015676
757.94,-0.0086405,0.094797,0.22875,1.0054,-0.07906,-9.7222,0.16799,1.538,-0.05,5.6684,-4.1219,-0.082662,0.064288,-0.06255,0.081217,1.373,0,0.009926
757.96,0.025085,0.072249,0.20239,0.99336,-0.080438,-9.7271,0.18101,1.529,-0.05,5.6675,-4.1213,-0.082444,0.070976,-0.010713,0.07199,1.373,0,0.018284
757.98,-0.0026414,0.071839,0.22649,0.99132,-0.072042,-9.7313,0.18592,1.5241,-0.05,5.6665,-4.1206,-0.082142,0.077663,0.041124,0.062763,1.373,0,0.026643
758,0.046149,0.10819,0.23094,0.98621,-0.066728,-9.7437,0.19257,1.5183,-0.050857,5.6655,-4.1199,-0.081859,0.084351,0.061354,0.053536,1.373,0,0.035001
758.02,0.075996,0.075487,0.22498,0.99432,-0.06718,-9.741,0.2077,1.5082,-0.055898,5.6644,-4.1191,-0.081663,0.091038,-0.03163,0.046087,1.373,0,0.041748
758.04,0.092502,0.076239,0.23908,0.98078,-0.060915,-9.7511,0.22177,1.4991,-0.06,5.6636,-4.1184,-0.081409,0.097726,-0.12461,0.046087,1.373,0,0.041748
758.06,0.038509,0.09809,0.25648,0.97825,-0.07097,-9.7361,0.23129,1.4944,-0.06,5.6636,-4.1181,-0.080935,0.10568,-0.2176,0.046087,1.373,0,0.041748
758.08,0.043165,0.083928,0.22124,0.98518,-0.068694,-9.724,0.24135,1.4887,-0.06,5.6637,-4.1179,-0.080427,0.11819,-0.31058,0.046087,1.373,0,0.041748
758.1,0.055013,0.081475,0.18026,0.99507,-0.054151,-9.7294,0.25722,1.4728,-0.06,5.6647,-4.1183,-0.07957,0.1307,-0.37031,0.046087,1.373,0,0.041748
758.12,0.067656,0.088292,0.17697,1.0073,-0.048156,-9.728,0.27193,1.4581,-0.06,5.6658,-4.1187,-0.078758,0.14321,-0.30827,0.046087,1.373,0.00052816,0.041748
758.14,0.093269,0.090097,0.21679,1.0041,-0.056515,-9.7203,0.28184,1.4482,-0.06,5.6665,-4.1188,-0.078119,0.15572,-0.24623,0.046087,1.373,0.0032854,0.041748
758.16,0.051304,0.081637,0.23465,0.99533,-0.063945,-9.7385,0.29267,1.4373,-0.06,5.6672,-4.1189,-0.077446,0.16823,-0.18419,0.046087,1.373,0.0060427,0.041748
758.18,0.012785,0.046861,0.18477,0.98875,-0.067782,-9.7358,0.30774,1.4223,-0.06,5.6677,-4.1188,-0.076628,0.18074,-0.12216,0.046087,1.373,0.0088,0.041748
758.2,0.06828,0.053369,0.20282,0.99557,-0.057873,-9.7367,0.32281,1.4081,-0.060937,5.6682,-4.1187,-0.07584,0.19325,-0.077678,0.046087,1.373,0.011557,0.041748
758.22,0.09076,0.030971,0.21905,0.99578,-0.047751,-9.7354,0.33789,1.3981,-0.065964,5.6686,-4.1185,-0.075183,0.20575,-0.097748,0.064918,1.3885,0.013239,0.040042
758.24,0.09073,0.086237,0.20037,0.97711,-0.054019,-9.732,0.35186,1.3872,-0.07,5.6689,-4.118,-0.074783,0.21826,-0.11782,0.15689,1.4646,0.010745,0.031711
758.26,0.12723,0.075089,0.20646,0.97772,-0.058619,-9.7365,0.3613,1.373,-0.07,5.6692,-4.1165,-0.075359,0.22633,-0.13789,0.24885,1.5408,0.0082505,0.023381
758.28,0.096407,0.10344,0.17218,0.9832,-0.055147,-9.7332,0.36916,1.3625,-0.07042,5.6695,-4.1149,-0.076048,0.21855,-0.15796,0.34082,1.6169,0.0057561,0.01505
758.3,0.097261,0.10368,0.19673,0.999,-0.061511,-9.7445,0.35847,1.3946,-0.075763,5.6698,-4.112,-0.077842,0.21078,-0.17178,0.43279,1.693,0.0032617,0.0067189
758.32,0.097544,0.11205,0.19342,0.99602,-0.070178,-9.7247,0.34897,1.4241,-0.08,5.67,-4.1092,-0.079594,0.203,-0.162,0.49086,1.7395,0.0017352,0
758.34,0.080981,0.078832,0.15344,0.99115,-0.064554,-9.7283,0.34397,1.4441,-0.08,5.6701,-4.1065,-0.081188,0.19522,-0.15223,0.40765,1.663,0.0042427,0
758.36,0.030557,0.074654,0.19622,0.99376,-0.065152,-9.7054,0.33899,1.4671,-0.078991,5.6701,-4.1039,-0.082804,0.18744,-0.14245,0.32445,1.5865,0.0067503,0
758.38,0.034714,0.096887,0.2461,0.99598,-0.068234,-9.7341,0.33406,1.5016,-0.074061,5.6701,-4.1013,-0.084501,0.17966,-0.13267,0.24124,1.51,0.0092578,0
758.4,0.053096,0.094072,0.19978,0.99255,-0.064793,-9.7349,0.32912,1.5344,-0.07,5.67,-4.0988,-0.086188,0.17188,-0.12239,0.15803,1.4335,0.011765,0
758.42,0.025281,0.10627,0.21172,0.99575,-0.066403,-9.7456,0.32412,1.5594,-0.07,5.6698,-4.0962,-0.087831,0.16411,-0.11025,0.092175,1.373,0.013181,0
758.44,0.021293,0.091193,0.21351,0.99213,-0.070653,-9.7524,0.31831,1.5851,-0.070843,5.6699,-4.0937,-0.089424,0.15633,-0.098098,0.092175,1.373,0.010452,0
758.46,0.058003,0.10304,0.18779,0.99175,-0.074002,-9.7367,0.30882,1.6135,-0.07559,5.6712,-4.0919,-0.090802,0.14843,-0.085951,0.092175,1.373,0.0077224,0
758.48,0.030898,0.113,0.20481,1.0035,-0.063057,-9.7373,0.3015,1.6374,-0.08,5.6726,-4.0902,-0.092179,0.14011,-0.073805,0.092175,1.373,0.0049932,0
758.5,0.0069637,0.078817,0.22736,0.99782,-0.077939,-9.7416,0.32258,1.6005,-0.08,5.6755,-4.0888,-0.093534,0.1318,-0.062878,0.092175,1.373,0.0022639,0
758.52,-0.0044177,0.03106,0.21357,0.99266,-0.068046,-9.7323,0.3444,1.5638,-0.08,5.6783,-4.0875,-0.094872,0.12348,-0.056672,0.090594,1.3743,0.00042873,0.0014319
758.54,0.030182,0.023384,0.21199,0.99896,-0.079624,-9.7273,0.3697,1.5284,-0.08,5.6807,-4.0862,-0.096135,0.11517,-0.050467,0.081323,1.3819,0.0029433,0.0098301
758.56,0.083857,0.057582,0.21621,0.99651,-0.081977,-9.7297,0.3939,1.4922,-0.079026,5.683,-4.0848,-0.09727,0.10686,-0.044261,0.072052,1.3896,0.0054579,0.018228
758.58,0.06847,0.11265,0.26423,0.99098,-0.06924,-9.7301,0.41362,1.4528,-0.074095,5.6849,-4.0833,-0.09793,0.098542,-0.038056,0.062781,1.3973,0.0079724,0.026627
758.6,0.079332,0.079566,0.22983,1.0056,-0.064346,-9.7453,0.43343,1.4131,-0.07,5.6869,-4.0819,-0.098604,0.090228,-0.044868,0.053509,1.405,0.010487,0.035025
758.62,0.10619,0.097383,0.18437,1.0027,-0.073472,-9.743,0.45363,1.3727,-0.07,5.6886,-4.0803,-0.099342,0.081914,-0.10184,0.046087,1.4096,0.011953,0.040089
758.64,0.096956,0.092951,0.19037,0.99518,-0.072735,-9.7286,0.47272,1.3337,-0.07,5.6903,-4.079,-0.10001,0.073599,-0.15881,0.046087,1.402,0.009213,0.031768
758.66,0.093464,0.038476,0.23249,0.99294,-0.067154,-9.7362,0.48703,1.3003,-0.07,5.6919,-4.0784,-0.10037,0.066315,-0.21578,0.046087,1.3944,0.0064725,0.023447
758.68,0.087043,0.01685,0.21812,0.98153,-0.059152,-9.728,0.49802,1.27,-0.07,5.6936,-4.078,-0.1007,0.062767,-0.27274,0.046087,1.3868,0.0037321,0.015127
758.7,0.056217,0.084803,0.20185,0.98737,-0.062212,-9.724,0.47703,1.27,-0.07,5.6953,-4.0782,-0.10079,0.059218,-0.31986,0.046087,1.3792,0.00099168,0.0068062
758.72,0.050119,0.1081,0.21043,0.99469,-0.065923,-9.7291,0.45624,1.27,-0.07,5.697,-4.0785,-0.1009,0.05567,-0.32953,0.047772,1.373,-0.00070164,0.0030524
758.74,0.031765,0.083674,0.21513,0.99693,-0.065724,-9.7379,0.43628,1.27,-0.07,5.6984,-4.0786,-0.10109,0.052122,-0.3392,0.057029,1.373,0.0023113,0.019824
758.76,0.055247,0.071112,0.23701,0.99633,-0.060567,-9.7417,0.41542,1.27,-0.07,5.6997,-4.0786,-0.10121,0.048573,-0.34887,0.066287,1.373,0.0053243,0.036595
758.78,0.089395,0.12447,0.23005,0.99063,-0.069971,-9.7217,0.39062,1.27,-0.07,5.7009,-4.0785,-0.10104,0.045025,-0.35854,0.075544,1.373,0.0083372,0.053366
758.8,0.072706,0.078716,0.19807,1,-0.062089,-9.7288,0.36659,1.27,-0.07,5.702,-4.0783,-0.10089,0.041477,-0.35391,0.084801,1.373,0.01135,0.070138
758.82,0.082943,0.07562,0.22596,0.98866,-0.072047,-9.7322,0.34634,1.27,-0.07,5.703,-4.078,-0.10086,0.037928,-0.29742,0.10903,1.3869,0.013191,0.083496
758.84,0.065531,0.10836,0.2143,1.0077,-0.080128,-9.7344,0.32632,1.27,-0.07092,5.704,-4.0778,-0.10079,0.03438,-0.24093,0.19184,1.4554,0.010446,0.083496
758.86,0.026149,0.11168,0.20802,1.0033,-0.070839,-9.7282,0.30728,1.27,-0.07568,5.7049,-4.0779,-0.10061,0.034987,-0.18444,0.27465,1.524,0.0077011,0.083496
758.88,0.0067602,0.13483,0.21137,0.98387,-0.056005,-9.7278,0.28951,1.2705,-0.080489,5.7059,-4.0781,-0.1004,0.050075,-0.12795,0.35746,1.5925,0.0049559,0.083496
758.9,0.012503,0.090057,0.20802,1.0042,-0.052523,-9.7192,0.28421,1.2758,-0.08579,5.707,-4.0787,-0.10001,0.065162,-0.083441,0.44027,1.661,0.0022108,0.083496
758.92,0.0074084,0.089552,0.23172,1.0006,-0.062708,-9.7201,0.28102,1.281,-0.09,5.7081,-4.0792,-0.099655,0.08025,-0.091339,0.4908,1.7043,0.00048716,0.083496
758.94,0.036153,0.1035,0.20675,0.99908,-0.072816,-9.7448,0.28599,1.286,-0.09,5.7089,-4.0796,-0.099454,0.095337,-0.099236,0.40775,1.6432,0.0029899,0.083496
758.96,0.021449,0.080748,0.18779,0.99112,-0.059426,-9.7335,0.29,1.291,-0.09,5.7097,-4.0799,-0.099255,0.11042,-0.10713,0.3247,1.5821,0.0054926,0.083496
758.98,0.076631,0.078772,0.2276,1.0001,-0.056492,-9.7443,0.29,1.2959,-0.09,5.7103,-4.08,-0.099071,0.12551,-0.11503,0.24165,1.521,0.0079953,0.083496
759,0.075735,0.070225,0.20717,1.0007,-0.053002,-9.7288,0.29091,1.3009,-0.09,5.7109,-4.0801,-0.098912,0.1406,-0.12623,0.1586,1.46,0.010498,0.083496
759.02,0.057882,0.068583,0.16664,0.99656,-0.043739,-9.7234,0.29591,1.3059,-0.09,5.7114,-4.08,-0.098859,0.15569,-0.14974,0.10873,1.4248,0.012001,0.080163
759.04,0.041163,0.066826,0.1926,0.99685,-0.066599,-9.7524,0.3,1.3109,-0.09,5.7116,-4.0801,-0.098806,0.17077,-0.17324,0.19149,1.4933,0.0095072,0.063505
759.06,0.049375,0.082992,0.24987,0.99955,-0.064537,-9.7452,0.3,1.3156,-0.09,5.7111,-4.0806,-0.098752,0.1836,-0.19674,0.27424,1.5618,0.0070134,0.046847
759.08,0.052651,0.099879,0.26111,0.99941,-0.065152,-9.7364,0.29842,1.32,-0.090394,5.7105,-4.0811,-0.098701,0.18861,-0.22024,0.35699,1.6302,0.0045195,0.030189
759.1,0.015754,0.038743,0.20998,0.98821,-0.065894,-9.7273,0.277,1.32,-0.095749,5.7089,-4.0821,-0.098681,0.19362,-0.24436,0.43974,1.6987,0.0020257,0.013531
759.12,0.04565,0.045132,0.22379,0.98461,-0.064303,-9.7498,0.25692,1.32,-0.1,5.7073,-4.0831,-0.098688,0.19863,-0.2713,0.49137,1.74,0.00051669,0.0047064
759.14,0.029137,0.054058,0.22133,0.98932,-0.062974,-9.7245,0.242,1.32,-0.1,5.7058,-4.0838,-0.098792,0.20364,-0.29823,0.40833,1.6637,0.0032694,0.02978
759.16,0.0030413,0.078366,0.19942,1.0031,-0.070445,-9.7087,0.22708,1.321,-0.1,5.7043,-4.0844,-0.098948,0.20864,-0.32517,0.32529,1.5873,0.0060222,0.054854
759.18,0.0060551,0.062888,0.22481,0.9894,-0.06446,-9.7353,0.21217,1.3259,-0.1,5.7028,-4.0849,-0.099293,0.21365,-0.3521,0.24225,1.511,0.0087749,0.079928
759.2,0.043308,0.056101,0.24302,0.98563,-0.051793,-9.7339,0.19724,1.3309,-0.10092,5.7013,-4.0854,-0.099655,0.21866,-0.36628,0.15921,1.4346,0.011528,0.105
759.22,0.075146,0.061376,0.19925,0.99713,-0.064105,-9.7347,0.18226,1.3359,-0.10591,5.6997,-4.0856,-0.10008,0.22367,-0.33304,0.0904,1.373,0.013221,0.12203
759.24,0.098905,0.05295,0.2046,0.98414,-0.058259,-9.7324,0.16736,1.34,-0.11,5.6984,-4.0859,-0.10065,0.22867,-0.2998,0.081191,1.373,0.010473,0.10535
759.26,0.10005,0.10622,0.21836,0.97921,-0.067969,-9.7222,0.15286,1.34,-0.11,5.6984,-4.0857,-0.10179,0.2324,-0.26656,0.071983,1.373,0.0077258,0.088663
759.28,0.077165,0.10041,0.20057,0.98984,-0.077277,-9.7402,0.14471,1.3406,-0.11,5.6985,-4.0856,-0.10303,0.2315,-0.23332,0.062774,1.373,0.0049784,0.071979
759.3,0.086708,0.08626,0.22003,0.9989,-0.079722,-9.7356,0.18633,1.3458,-0.11,5.6999,-4.0851,-0.10493,0.2306,-0.20643,0.053565,1.373,0.002231,0.055296
759.32,0.049254,0.068957,0.22703,0.99531,-0.069613,-9.724,0.22861,1.351,-0.11,5.7012,-4.0846,-0.10679,0.2297,-0.20626,0.047826,1.373,0.00047169,0.041748
759.34,0.078213,0.086613,0.21108,0.98861,-0.061004,-9.7301,0.27369,1.356,-0.11,5.7022,-4.084,-0.10854,0.2288,-0.20608,0.05708,1.373,0.0029814,0.041748
759.36,0.086404,0.09148,0.21094,0.99569,-0.064448,-9.7403,0.31873,1.36,-0.10903,5.7032,-4.0834,-0.11018,0.2279,-0.2059,0.066333,1.373,0.005491,0.041748
759.38,0.065476,0.074001,0.22047,0.98186,-0.064459,-9.7329,0.36363,1.36,-0.10404,5.7039,-4.0828,-0.11142,0.227,-0.20572,0.075586,1.373,0.0080007,0.041748
